{"type":"FeatureCollection","features":[{"type":"Feature","id":12,"geometry":{"type":"Point","coordinates":[-1.8655523369999401,51.64667909700006]},"properties":{"OBJECTID":12,"name":"River Thames","description":"https://check-for-flooding.service.gov.uk/station/7014","imageURL":null,"siteURL":"https://check-for-flooding.service.gov.uk/station/7014","Category":"Gauges"}},{"type":"Feature","id":13,"geometry":{"type":"Point","coordinates":[-1.8739906159999578,51.61322404100008]},"properties":{"OBJECTID":13,"name":"River Key","description":"https://check-for-flooding.service.gov.uk/station/7013","imageURL":null,"siteURL":"https://check-for-flooding.service.gov.uk/station/7013","Category":"Gauges"}},{"type":"Feature","id":14,"geometry":{"type":"Point","coordinates":[-1.8263561069999241,51.640412834000074]},"properties":{"OBJECTID":14,"name":"River Ray","description":"https://check-for-flooding.service.gov.uk/station/7020","imageURL":null,"siteURL":"https://check-for-flooding.service.gov.uk/station/7020","Category":"Gauges"}},{"type":"Feature","id":16,"geometry":{"type":"Point","coordinates":[-1.8497611889999348,51.654901524000081]},"properties":{"OBJECTID":16,"name":"Ampney Brook","description":"https://check-for-flooding.service.gov.uk/station/7022","imageURL":null,"siteURL":"https://check-for-flooding.service.gov.uk/station/7022","Category":"Gauges"}},{"type":"Feature","id":17,"geometry":{"type":"Point","coordinates":[-1.8919694519999553,51.665347714000063]},"properties":{"OBJECTID":17,"name":"River Churn","description":"https://check-for-flooding.service.gov.uk/station/7017","imageURL":null,"siteURL":"https://check-for-flooding.service.gov.uk/station/7017","Category":"Gauges"}},{"type":"Feature","id":18,"geometry":{"type":"Point","coordinates":[-1.9732609129999332,51.650743957000032]},"properties":{"OBJECTID":18,"name":"River Thame (Somerford Keynes)","description":"https://check-for-flooding.service.gov.uk/station/7011","imageURL":null,"siteURL":"https://check-for-flooding.service.gov.uk/station/7011","Category":"Gauges"}}]}